[{"id":"ZW","name":"Zimbabwe","centroid":{"lat":-18.997046862120285,"lon":29.851013448997108}},{"id":"ZM","name":"Zambia","centroid":{"lat":-13.455525514906354,"lon":27.80858199151099}},{"id":"YE","name":"Yemen","centroid":{"lat":15.943754363521782,"lon":47.52007402616599}},{"id":"VN","name":"Vietnam","centroid":{"lat":16.55013098765235,"lon":106.34898588237729}},{"id":"VE","name":"Venezuela","centroid":{"lat":7.116593482550146,"lon":-66.1755479758119}},{"id":"VA","name":"Vatican","centroid":{"lat":41.90175008950026,"lon":12.43387145532496}},{"id":"VU","name":"Vanuatu","centroid":{"lat":-15.225305518602301,"lon":166.84956819811455}},{"id":"UZ","name":"Uzbekistan","centroid":{"lat":41.776894249060355,"lon":63.29508788729946}},{"id":"UY","name":"Uruguay","centroid":{"lat":-32.79134099518995,"lon":-56.02520567382524}},{"id":"FM","name":"Micronesia","centroid":{"lat":6.88584854168368,"lon":158.23250971886995}},{"id":"MH","name":"Marshall Is.","centroid":{"lat":7.105944945797254,"lon":171.18638383024023}},{"id":"MP","name":"N. Mariana Is.","centroid":{"lat":15.180934320262564,"lon":145.74370580105648}},{"id":"VI","name":"U.S. Virgin Is.","centroid":{"lat":17.7413038205598,"lon":-64.77162807560714}},{"id":"GU","name":"Guam","centroid":{"lat":13.44162905596553,"lon":144.76785167321094}},{"id":"AS","name":"American Samoa","centroid":{"lat":-14.304466385561847,"lon":-170.71801892380094}},{"id":"PR","name":"Puerto Rico","centroid":{"lat":18.230795904761578,"lon":-66.48209898298983}},{"id":"GS","name":"S. Geo. and the Is.","centroid":{"lat":-54.364264927713144,"lon":-36.69412944482309}},{"id":"IO","name":"Br. Indian Ocean Ter.","centroid":{"lat":-7.330593358898974,"lon":72.44541057695024}},{"id":"SH","name":"Saint Helena","centroid":{"lat":-15.95890701247681,"lon":-5.716183558570037}},{"id":"PN","name":"Pitcairn Is.","centroid":{"lat":-24.36500307632926,"lon":-128.31704408801352}},{"id":"AI","name":"Anguilla","centroid":{"lat":18.223972783441706,"lon":-63.06499941172778}},{"id":"FK","name":"Falkland Is.","centroid":{"lat":-51.744510316304144,"lon":-58.75769763853004}},{"id":"KY","name":"Cayman Is.","centroid":{"lat":19.32089479781742,"lon":-81.28502139764899}},{"id":"BM","name":"Bermuda","centroid":{"lat":32.31367783320779,"lon":-64.75460041871109}},{"id":"VG","name":"British Virgin Is.","centroid":{"lat":18.423000042650294,"lon":-64.62140993304392}},{"id":"TC","name":"Turks and Caicos Is.","centroid":{"lat":21.811706611060664,"lon":-71.74139352117531}},{"id":"MS","name":"Montserrat","centroid":{"lat":16.739412360007933,"lon":-62.18518514597548}},{"id":"JE","name":"Jersey","centroid":{"lat":49.21838721433743,"lon":-2.1268906782756107}},{"id":"GG","name":"Guernsey","centroid":{"lat":49.46810387381206,"lon":-2.572404467038558}},{"id":"IM","name":"Isle of Man","centroid":{"lat":54.22409597494687,"lon":-4.539038540953958}},{"id":"GB","name":"United Kingdom","centroid":{"lat":53.82588154932907,"lon":-2.411745258263241}},{"id":"AE","name":"United Arab Emirates","centroid":{"lat":23.902438796010077,"lon":54.29790955493284}},{"id":"UA","name":"Ukraine","centroid":{"lat":49.19669224604521,"lon":31.315402889249906}},{"id":"UG","name":"Uganda","centroid":{"lat":1.2742314953605267,"lon":32.368665428905594}},{"id":"TM","name":"Turkmenistan","centroid":{"lat":39.12547206618494,"lon":59.44795133238186}},{"id":"TR","name":"Turkey","centroid":{"lat":39.062419480513924,"lon":35.40976724191934}},{"id":"TN","name":"Tunisia","centroid":{"lat":34.08947367880876,"lon":9.55104277407074}},{"id":"TT","name":"Trinidad and Tobago","centroid":{"lat":10.421000887111502,"lon":-61.293107832351374}},{"id":"TO","name":"Tonga","centroid":{"lat":-21.166633280736225,"lon":-175.2171449769554}},{"id":"TG","name":"Togo","centroid":{"lat":8.520779890144535,"lon":0.9638596138866814}},{"id":"TL","name":"Timor-Leste","centroid":{"lat":-8.810112560219466,"lon":125.92348810459633}},{"id":"TH","name":"Thailand","centroid":{"lat":15.09887849907406,"lon":101.00441656549317}},{"id":"TZ","name":"Tanzania","centroid":{"lat":-6.268930785246823,"lon":34.78678192433932}},{"id":"TJ","name":"Tajikistan","centroid":{"lat":38.53478197580002,"lon":71.02731865311878}},{"id":"TW","name":"Taiwan","centroid":{"lat":23.748003330695035,"lon":120.95917652057207}},{"id":"SY","name":"Syria","centroid":{"lat":35.01677730522279,"lon":38.484462078340876}},{"id":"CH","name":"Switzerland","centroid":{"lat":46.79889642003402,"lon":8.206282051119139}},{"id":"SE","name":"Sweden","centroid":{"lat":62.433583183783725,"lon":16.246985542410137}},{"id":"SZ","name":"eSwatini","centroid":{"lat":-26.557546510361743,"lon":31.481869656015927}},{"id":"SR","name":"Suriname","centroid":{"lat":4.1298483510930835,"lon":-55.91243117650263}},{"id":"SS","name":"S. Sudan","centroid":{"lat":7.3086969222709826,"lon":30.251333822972956}},{"id":"SD","name":"Sudan","centroid":{"lat":15.967966097274168,"lon":29.907465230816236}},{"id":"LK","name":"Sri Lanka","centroid":{"lat":7.606961766663389,"lon":80.70358107997971}},{"id":"ES","name":"Spain","centroid":{"lat":40.37198785318874,"lon":-3.5731826265606625}},{"id":"KR","name":"South Korea","centroid":{"lat":36.45081350364715,"lon":127.86842400855072}},{"id":"ZA","name":"South Africa","centroid":{"lat":-28.9706029638126,"lon":25.191500733633955}},{"id":"SO","name":"Somalia","centroid":{"lat":4.739406093796056,"lon":45.67929276613253}},{"id":"SB","name":"Solomon Is.","centroid":{"lat":-9.62451980764233,"lon":160.1687869133628}},{"id":"SK","name":"Slovakia","centroid":{"lat":48.71128085918293,"lon":19.468971915357677}},{"id":"SI","name":"Slovenia","centroid":{"lat":46.11589042607372,"lon":14.800523396266362}},{"id":"SG","name":"Singapore","centroid":{"lat":1.3587620992573903,"lon":103.81725592625999}},{"id":"SL","name":"Sierra Leone","centroid":{"lat":8.571192877850484,"lon":-11.784943265167271}},{"id":"SC","name":"Seychelles","centroid":{"lat":-4.660989526306911,"lon":55.47602780029196}},{"id":"RS","name":"Serbia","centroid":{"lat":44.211319817899266,"lon":20.80660626161307}},{"id":"SN","name":"Senegal","centroid":{"lat":14.36481109549319,"lon":-14.469447821000822}},{"id":"SA","name":"Saudi Arabia","centroid":{"lat":24.088865205639163,"lon":44.6653866551798}},{"id":"ST","name":"São Tomé and Principe","centroid":{"lat":0.23811484371337227,"lon":6.606592312863683}},{"id":"SM","name":"San Marino","centroid":{"lat":43.94186527890865,"lon":12.459215067022686}},{"id":"WS","name":"Samoa","centroid":{"lat":-13.630787396993835,"lon":-172.43746387723667}},{"id":"VC","name":"St. Vin. and Gren.","centroid":{"lat":13.254108342703503,"lon":-61.19576334130279}},{"id":"LC","name":"Saint Lucia","centroid":{"lat":13.894772760018572,"lon":-60.96971092177591}},{"id":"KN","name":"St. Kitts and Nevis","centroid":{"lat":17.326884594558315,"lon":-62.747580849677334}},{"id":"RW","name":"Rwanda","centroid":{"lat":-1.9903248653704182,"lon":29.919982910385347}},{"id":"RU","name":"Russia","centroid":{"lat":65.7425693160447,"lon":95.14020332990381}},{"id":"RO","name":"Romania","centroid":{"lat":45.848413998435255,"lon":24.983181820553067}},{"id":"QA","name":"Qatar","centroid":{"lat":25.30486235692643,"lon":51.18465176847167}},{"id":"PT","name":"Portugal","centroid":{"lat":39.6515741056831,"lon":-7.984901823695747}},{"id":"PL","name":"Poland","centroid":{"lat":52.111835670097584,"lon":19.41970628568953}},{"id":"PH","name":"Philippines","centroid":{"lat":15.947275577157601,"lon":121.42030368340332}},{"id":"PE","name":"Peru","centroid":{"lat":-9.107149641151155,"lon":-74.42074158174631}},{"id":"PY","name":"Paraguay","centroid":{"lat":-23.208909428690724,"lon":-58.44343291171111}},{"id":"PG","name":"Papua New Guinea","centroid":{"lat":-6.604540256647853,"lon":144.23424126504042}},{"id":"PA","name":"Panama","centroid":{"lat":8.527092622004425,"lon":-80.111144799264}},{"id":"PW","name":"Palau","centroid":{"lat":7.512944572331588,"lon":134.58047059283172}},{"id":"PK","name":"Pakistan","centroid":{"lat":29.88394532810637,"lon":69.16843951107514}},{"id":"OM","name":"Oman","centroid":{"lat":20.557012138365263,"lon":56.05567512921793}},{"id":"NO","name":"Norway","centroid":{"lat":63.78631347105668,"lon":12.158573201331198}},{"id":"KP","name":"North Korea","centroid":{"lat":40.14028155163608,"lon":127.15997666573492}},{"id":"NG","name":"Nigeria","centroid":{"lat":9.591947771682973,"lon":8.079753087602173}},{"id":"NE","name":"Niger","centroid":{"lat":17.412007979606592,"lon":9.331610102084651}},{"id":"NI","name":"Nicaragua","centroid":{"lat":12.844992657061711,"lon":-85.0319411185884}},{"id":"NZ","name":"New Zealand","centroid":{"lat":-43.948521303144624,"lon":170.61108546397028}},{"id":"NU","name":"Niue","centroid":{"lat":-19.049456306482924,"lon":-169.8699428041582}},{"id":"CK","name":"Cook Is.","centroid":{"lat":-21.219274210927832,"lon":-159.78724283242587}},{"id":"NL","name":"Netherlands","centroid":{"lat":52.276483790563844,"lon":5.632777254264986}},{"id":"AW","name":"Aruba","centroid":{"lat":12.520877815722395,"lon":-69.98266368781009}},{"id":"CW","name":"Curaçao","centroid":{"lat":12.195518642701327,"lon":-68.97111822625601}},{"id":"NP","name":"Nepal","centroid":{"lat":28.258042502317878,"lon":83.94684432365517}},{"id":"NR","name":"Nauru","centroid":{"lat":-0.5191261897672157,"lon":166.93256806556474}},{"id":"NA","name":"Namibia","centroid":{"lat":-22.0696899483071,"lon":17.195019996962667}},{"id":"MZ","name":"Mozambique","centroid":{"lat":-17.195857631902573,"lon":35.60272770611205}},{"id":"MA","name":"Morocco","centroid":{"lat":29.766859053027858,"lon":-8.727847819101049}},{"id":"EH","name":"W. Sahara","centroid":{"lat":24.21172952155853,"lon":-12.271496626564897}},{"id":"ME","name":"Montenegro","centroid":{"lat":42.78800334289025,"lon":19.238630679785217}},{"id":"MN","name":"Mongolia","centroid":{"lat":46.95620386914696,"lon":103.12397216073957}},{"id":"MD","name":"Moldova","centroid":{"lat":47.187172797844156,"lon":28.46561916721804}},{"id":"MC","name":"Monaco","centroid":{"lat":43.752747957328424,"lon":7.406274494938887}},{"id":"MX","name":"Mexico","centroid":{"lat":23.916912888825607,"lon":-102.15341583062644}},{"id":"MU","name":"Mauritius","centroid":{"lat":-20.27761966600511,"lon":57.571264586617275}},{"id":"MR","name":"Mauritania","centroid":{"lat":20.22076555091276,"lon":-10.368773094964842}},{"id":"MT","name":"Malta","centroid":{"lat":35.89003040114,"lon":14.443298731885646}},{"id":"ML","name":"Mali","centroid":{"lat":17.315139002717885,"lon":-3.590472991848376}},{"id":"MV","name":"Maldives","centroid":{"lat":3.2607490346108494,"lon":73.41091159385962}},{"id":"MY","name":"Malaysia","centroid":{"lat":3.6151993369748694,"lon":114.71706780500716}},{"id":"MW","name":"Malawi","centroid":{"lat":-13.206202788200255,"lon":34.28227411621976}},{"id":"MG","name":"Madagascar","centroid":{"lat":-19.319962536094494,"lon":46.74115921546305}},{"id":"MK","name":"North Macedonia","centroid":{"lat":41.595191566453586,"lon":21.680595860012005}},{"id":"LU","name":"Luxembourg","centroid":{"lat":49.766782277377615,"lon":6.072158339363325}},{"id":"LT","name":"Lithuania","centroid":{"lat":55.323562422452035,"lon":23.90178947456907}},{"id":"LI","name":"Liechtenstein","centroid":{"lat":47.136626651151005,"lon":9.535752487126983}},{"id":"LY","name":"Libya","centroid":{"lat":27.01671645189744,"lon":18.066793060787777}},{"id":"LR","name":"Liberia","centroid":{"lat":6.451957521739631,"lon":-9.319832584801578}},{"id":"LS","name":"Lesotho","centroid":{"lat":-29.57906368968632,"lon":28.228962186561322}},{"id":"LB","name":"Lebanon","centroid":{"lat":33.92159867183911,"lon":35.8776957760432}},{"id":"LV","name":"Latvia","centroid":{"lat":56.85952166453045,"lon":24.92044692345938}},{"id":"LA","name":"Laos","centroid":{"lat":18.487418152658847,"lon":103.77493439642411}},{"id":"KG","name":"Kyrgyzstan","centroid":{"lat":41.474310324794516,"lon":74.50908618059871}},{"id":"KW","name":"Kuwait","centroid":{"lat":29.315605764821644,"lon":47.56282992534896}},{"id":"XK","name":"Kosovo","centroid":{"lat":42.57019924522766,"lon":20.872602971621184}},{"id":"KI","name":"Kiribati","centroid":{"lat":1.8544468253185664,"lon":-157.37418032175017}},{"id":"KE","name":"Kenya","centroid":{"lat":0.6000523826448776,"lon":37.795500636675946}},{"id":"KZ","name":"Kazakhstan","centroid":{"lat":48.36187875845759,"lon":67.24726507484213}},{"id":"JO","name":"Jordan","centroid":{"lat":31.238702678694032,"lon":36.75768365821878}},{"id":"JP","name":"Japan","centroid":{"lat":36.63362414445319,"lon":137.88309394242336}},{"id":"JM","name":"Jamaica","centroid":{"lat":18.157450928073715,"lon":-77.3143961046842}},{"id":"IT","name":"Italy","centroid":{"lat":43.48605293137537,"lon":12.300564504499082}},{"id":"IL","name":"Israel","centroid":{"lat":31.432978343445885,"lon":34.99113826647225}},{"id":"PS","name":"Palestine","centroid":{"lat":31.94703581704231,"lon":35.2476020117505}},{"id":"IE","name":"Ireland","centroid":{"lat":53.16110227906612,"lon":-8.142440503727256}},{"id":"IQ","name":"Iraq","centroid":{"lat":33.00966636528505,"lon":43.773676062770896}},{"id":"IR","name":"Iran","centroid":{"lat":32.532266054930496,"lon":54.43960262538887}},{"id":"ID","name":"Indonesia","centroid":{"lat":-0.191139072172846,"lon":114.01360412327087}},{"id":"IN","name":"India","centroid":{"lat":22.800132744316326,"lon":79.53376348254386}},{"id":"IS","name":"Iceland","centroid":{"lat":64.9978840364492,"lon":-18.58003362785902}},{"id":"HU","name":"Hungary","centroid":{"lat":47.16591255083838,"lon":19.379267832928974}},{"id":"HN","name":"Honduras","centroid":{"lat":14.825941602873337,"lon":-86.61826792285359}},{"id":"HT","name":"Haiti","centroid":{"lat":18.92788683863027,"lon":-72.67709708100097}},{"id":"GY","name":"Guyana","centroid":{"lat":4.789642971855574,"lon":-58.979920967870086}},{"id":"GW","name":"Guinea-Bissau","centroid":{"lat":12.064263670880221,"lon":-14.923733613448489}},{"id":"GN","name":"Guinea","centroid":{"lat":10.437318691031788,"lon":-10.934245925123944}},{"id":"GT","name":"Guatemala","centroid":{"lat":15.690119534956487,"lon":-90.36721218769378}},{"id":"GD","name":"Grenada","centroid":{"lat":12.117242153857124,"lon":-61.682211592804514}},{"id":"GR","name":"Greece","centroid":{"lat":39.46113683431809,"lon":22.56583267571563}},{"id":"GH","name":"Ghana","centroid":{"lat":7.947699717018834,"lon":-1.2169896112591811}},{"id":"DE","name":"Germany","centroid":{"lat":51.032162369934525,"lon":10.352479226085071}},{"id":"GE","name":"Georgia","centroid":{"lat":42.17294198649984,"lon":43.52425592579916}},{"id":"GM","name":"Gambia","centroid":{"lat":13.450953352817281,"lon":-15.39632386333528}},{"id":"GA","name":"Gabon","centroid":{"lat":-0.5864466474145381,"lon":11.788741688332635}},{"id":"FR","name":"France","centroid":{"lat":46.57229360121696,"lon":2.4609629255953673}},{"id":"PM","name":"St. Pierre and Miquelon","centroid":{"lat":46.945986352360116,"lon":-56.32693618565968}},{"id":"WF","name":"Wallis and Futuna Is.","centroid":{"lat":-14.28573653017795,"lon":-178.12956036402574}},{"id":"MF","name":"St-Martin","centroid":{"lat":18.088890631325025,"lon":-63.05972916527457}},{"id":"BL","name":"St-Barthélemy","centroid":{"lat":17.898805588072015,"lon":-62.84067698778577}},{"id":"PF","name":"Fr. Polynesia","centroid":{"lat":-17.663311122260517,"lon":-149.42032908781343}},{"id":"NC","name":"New Caledonia","centroid":{"lat":-21.324818951797038,"lon":165.48124953628454}},{"id":"TF","name":"Fr. S. Antarctic Lands","centroid":{"lat":-49.30432732290592,"lon":69.49465194974391}},{"id":"AX","name":"Åland","centroid":{"lat":60.23124559156962,"lon":19.94387301990827}},{"id":"FI","name":"Finland","centroid":{"lat":64.26141699699862,"lon":26.205717596546034}},{"id":"FJ","name":"Fiji","centroid":{"lat":-17.822936938891676,"lon":177.97287503397757}},{"id":"ET","name":"Ethiopia","centroid":{"lat":8.6144006280961,"lon":39.60979221400505}},{"id":"EE","name":"Estonia","centroid":{"lat":58.683468907831916,"lon":25.837670270816794}},{"id":"ER","name":"Eritrea","centroid":{"lat":15.358739891298924,"lon":38.84915704477606}},{"id":"GQ","name":"Eq. Guinea","centroid":{"lat":1.565208726955301,"lon":10.470466716733638}},{"id":"SV","name":"El Salvador","centroid":{"lat":13.739863776768146,"lon":-88.87095715929189}},{"id":"EG","name":"Egypt","centroid":{"lat":26.459802849719008,"lon":29.878269553934867}},{"id":"EC","name":"Ecuador","centroid":{"lat":-1.4447286027509343,"lon":-78.38916940085018}},{"id":"DO","name":"Dominican Rep.","centroid":{"lat":18.89511557554653,"lon":-70.5052414873751}},{"id":"DM","name":"Dominica","centroid":{"lat":15.439434669293188,"lon":-61.35770039267262}},{"id":"DJ","name":"Djibouti","centroid":{"lat":11.748306745108662,"lon":42.56007888678913}},{"id":"GL","name":"Greenland","centroid":{"lat":73.08399945007409,"lon":-41.80267020438363}},{"id":"FO","name":"Faeroe Is.","centroid":{"lat":62.17004456041257,"lon":-6.884440862642157}},{"id":"DK","name":"Denmark","centroid":{"lat":56.23058050663872,"lon":9.34792741952847}},{"id":"CZ","name":"Czechia","centroid":{"lat":49.73799662074379,"lon":15.319440783386403}},{"id":"CY","name":"Cyprus","centroid":{"lat":34.917087356570136,"lon":33.00581039384659}},{"id":"CU","name":"Cuba","centroid":{"lat":21.62880630894119,"lon":-78.91345916148629}},{"id":"HR","name":"Croatia","centroid":{"lat":45.156800994979,"lon":16.419119525590634}},{"id":"CI","name":"Côte d'Ivoire","centroid":{"lat":7.626393779611007,"lon":-5.569601243607295}},{"id":"CR","name":"Costa Rica","centroid":{"lat":9.97613124830729,"lon":-84.18986949148281}},{"id":"CD","name":"Dem. Rep. Congo","centroid":{"lat":-2.8654880172464074,"lon":23.637747224405146}},{"id":"CG","name":"Congo","centroid":{"lat":-0.8369923019699113,"lon":15.221142402863855}},{"id":"KM","name":"Comoros","centroid":{"lat":-11.654314550410703,"lon":43.33912090190029}},{"id":"CO","name":"Colombia","centroid":{"lat":3.903593301108147,"lon":-73.07659008503424}},{"id":"CN","name":"China","centroid":{"lat":36.756791116096444,"lon":103.34575502831892}},{"id":"MO","name":"Macao","centroid":{"lat":22.22311745508927,"lon":113.5093200034282}},{"id":"HK","name":"Hong Kong","centroid":{"lat":22.43918804581167,"lon":114.1391885806392}},{"id":"CL","name":"Chile","centroid":{"lat":-34.3618194868734,"lon":-70.94989718164703}},{"id":"TD","name":"Chad","centroid":{"lat":15.275359364925823,"lon":18.63499752015547}},{"id":"CF","name":"Central African Rep.","centroid":{"lat":6.572299124404324,"lon":20.46183293557543}},{"id":"CV","name":"Cabo Verde","centroid":{"lat":15.08238518993769,"lon":-23.637107757948726}},{"id":"CM","name":"Cameroon","centroid":{"lat":5.681167950265313,"lon":12.73394395310577}},{"id":"KH","name":"Cambodia","centroid":{"lat":12.720422386083113,"lon":104.90634524717096}},{"id":"MM","name":"Myanmar","centroid":{"lat":21.149817578518455,"lon":96.49462457374037}},{"id":"BI","name":"Burundi","centroid":{"lat":-3.359214984203053,"lon":29.87522851266566}},{"id":"BF","name":"Burkina Faso","centroid":{"lat":12.270726179518965,"lon":-1.7611383548049195}},{"id":"BG","name":"Bulgaria","centroid":{"lat":42.77124108130597,"lon":25.20913262650638}},{"id":"BN","name":"Brunei","centroid":{"lat":4.490444808848128,"lon":114.59191573720454}},{"id":"BW","name":"Botswana","centroid":{"lat":-22.165244815913912,"lon":23.80861288131223}},{"id":"BA","name":"Bosnia and Herz.","centroid":{"lat":44.1714743505993,"lon":17.774891584393888}},{"id":"BO","name":"Bolivia","centroid":{"lat":-16.68198426467204,"lon":-64.69843860387806}},{"id":"BT","name":"Bhutan","centroid":{"lat":27.412137864723537,"lon":90.40215961054375}},{"id":"BJ","name":"Benin","centroid":{"lat":9.63561216267076,"lon":2.326614658252217}},{"id":"BZ","name":"Belize","centroid":{"lat":17.192741287147122,"lon":-88.71938308539}},{"id":"BE","name":"Belgium","centroid":{"lat":50.638894966414625,"lon":4.645938288390595}},{"id":"BY","name":"Belarus","centroid":{"lat":53.519520554271715,"lon":28.014955215266706}},{"id":"BB","name":"Barbados","centroid":{"lat":13.181449882020402,"lon":-59.559785194025935}},{"id":"BD","name":"Bangladesh","centroid":{"lat":23.891079138616362,"lon":90.23285229708193}},{"id":"BH","name":"Bahrain","centroid":{"lat":26.041964003819054,"lon":50.54199333196571}},{"id":"BS","name":"Bahamas","centroid":{"lat":24.701138312319124,"lon":-78.03772274620319}},{"id":"AZ","name":"Azerbaijan","centroid":{"lat":40.342011461485676,"lon":47.67038864941976}},{"id":"AT","name":"Austria","centroid":{"lat":47.59229344832627,"lon":14.110430202421265}},{"id":"AU","name":"Australia","centroid":{"lat":-25.632111639728063,"lon":134.20701180199808}},{"id":"HM","name":"Heard I. and McDonald Is.","centroid":{"lat":-53.087264988104,"lon":73.52035205204214}},{"id":"NF","name":"Norfolk Island","centroid":{"lat":-29.05145986366131,"lon":167.9492155736922}},{"id":"AM","name":"Armenia","centroid":{"lat":40.28686149655598,"lon":44.93753965632019}},{"id":"AR","name":"Argentina","centroid":{"lat":-34.53501455995826,"lon":-64.74812127263725}},{"id":"AG","name":"Antigua and Barb.","centroid":{"lat":17.07777947321136,"lon":-61.78996452606527}},{"id":"AO","name":"Angola","centroid":{"lat":-12.309640304879535,"lon":17.559979536706198}},{"id":"AD","name":"Andorra","centroid":{"lat":42.542286408472194,"lon":1.5605245781091965}},{"id":"DZ","name":"Algeria","centroid":{"lat":28.055993376399048,"lon":2.631188352995757}},{"id":"AL","name":"Albania","centroid":{"lat":41.13487371553365,"lon":20.05184591948005}},{"id":"AF","name":"Afghanistan","centroid":{"lat":33.818756400148665,"lon":65.92599982364429}},{"id":"AQ","name":"Antarctica","centroid":{"lat":-84.67931530619988,"lon":83.04094738243457}},{"id":"SX","name":"Sint Maarten","centroid":{"lat":18.050822159350425,"lon":-63.05713362494297}},{"id":"TV","name":"Tuvalu","centroid":{"lat":-8.503450980773511,"lon":179.2055652208804}},{"id":"FR-GF","name":"France - Guyane française","centroid":{"lat":3.9218281815763025,"lon":-53.24453800056625}},{"id":"BR-RS","name":"Brazil - Rio Grande do Sul","centroid":{"lat":-29.72732880283057,"lon":-53.31862860755675}},{"id":"BR-RR","name":"Brazil - Roraima","centroid":{"lat":2.0645412139877153,"lon":-61.40507357265864}},{"id":"BR-PA","name":"Brazil - Pará","centroid":{"lat":-4.037392018011133,"lon":-53.13264347851396}},{"id":"BR-AC","name":"Brazil - Acre","centroid":{"lat":-9.300904532615638,"lon":-70.47973359611845}},{"id":"BR-AP","name":"Brazil - Amapá","centroid":{"lat":1.4559817367969872,"lon":-51.966901244589536}},{"id":"BR-MS","name":"Brazil - Mato Grosso do Sul","centroid":{"lat":-20.325239202887186,"lon":-54.8468205325843}},{"id":"BR-PR","name":"Brazil - Paraná","centroid":{"lat":-24.631960101068675,"lon":-51.63250533254262}},{"id":"BR-SC","name":"Brazil - Santa Catarina","centroid":{"lat":-27.250086274129472,"lon":-50.49162127652717}},{"id":"US-WA","name":"US - Washington","centroid":{"lat":47.38215206545065,"lon":-120.44213543523932}},{"id":"CA-BC","name":"Canada - British Columbia","centroid":{"lat":54.565508733740586,"lon":-124.3523342887714}},{"id":"US-ID","name":"US - Idaho","centroid":{"lat":44.35563757319115,"lon":-114.60682266005811}},{"id":"US-MT","name":"US - Montana","centroid":{"lat":47.05058163907509,"lon":-109.62571794509991}},{"id":"CA-AB","name":"Canada - Alberta","centroid":{"lat":54.983147300457894,"lon":-114.40392950107193}},{"id":"CA-SK","name":"Canada - Saskatchewan","centroid":{"lat":54.193688538905334,"lon":-105.8834384309211}},{"id":"US-ND","name":"US - North Dakota","centroid":{"lat":47.447384784308056,"lon":-100.46810396282876}},{"id":"CA-MB","name":"Canada - Manitoba","centroid":{"lat":54.73318027947941,"lon":-97.49546213351408}},{"id":"US-MN","name":"US - Minnesota","centroid":{"lat":46.309633881063576,"lon":-94.19976521649069}},{"id":"CA-ON","name":"Canada - Ontario","centroid":{"lat":49.93281673441273,"lon":-85.44577343770739}},{"id":"US-MI","name":"US - Michigan","centroid":{"lat":44.83734441430951,"lon":-85.67126910160762}},{"id":"US-OH","name":"US - Ohio","centroid":{"lat":40.410021072663426,"lon":-82.71847561418232}},{"id":"US-PA","name":"US - Pennsylvania","centroid":{"lat":40.90269215227443,"lon":-77.83941048721151}},{"id":"US-NY","name":"US - New York","centroid":{"lat":42.989189278216514,"lon":-75.69308612310974}},{"id":"CA-QC","name":"Canada - Québec","centroid":{"lat":53.030745617058145,"lon":-71.79546490744333}},{"id":"US-VT","name":"US - Vermont","centroid":{"lat":44.0697401264132,"lon":-72.66883024754836}},{"id":"US-NH","name":"US - New Hampshire","centroid":{"lat":43.68334273844474,"lon":-71.58111743010171}},{"id":"US-ME","name":"US - Maine","centroid":{"lat":45.37602997897416,"lon":-69.24505371908819}},{"id":"CA-NB","name":"Canada - New Brunswick","centroid":{"lat":46.61875962985274,"lon":-66.37286288757986}},{"id":"US-AZ","name":"US - Arizona","centroid":{"lat":34.27320148923185,"lon":-111.65674579782225}},{"id":"US-CA","name":"US - California","centroid":{"lat":37.17954142336692,"lon":-119.46719895234058}},{"id":"US-NM","name":"US - New Mexico","centroid":{"lat":34.40724200155814,"lon":-106.11467962960502}},{"id":"US-TX","name":"US - Texas","centroid":{"lat":31.480829923735598,"lon":-99.32712123237675}},{"id":"BR-AM","name":"Brazil - Amazonas","centroid":{"lat":-4.185750747021075,"lon":-64.71474650646591}},{"id":"BR-RO","name":"Brazil - Rondônia","centroid":{"lat":-10.914206664747557,"lon":-62.84911917355572}},{"id":"BR-MT","name":"Brazil - Mato Grosso","centroid":{"lat":-12.953860213507436,"lon":-55.93194429282786}},{"id":"US-AK","name":"US - Alaska","centroid":{"lat":63.98522001472419,"lon":-152.4603129089184}},{"id":"CA-YT","name":"Canada - Yukon","centroid":{"lat":63.46222319626246,"lon":-135.18210272707762}},{"id":"BR-MA","name":"Brazil - Maranhão","centroid":{"lat":-5.086586162120289,"lon":-45.28637179647173}},{"id":"BR-PI","name":"Brazil - Piauí","centroid":{"lat":-7.405924370216104,"lon":-42.980703211050184}},{"id":"BR-CE","name":"Brazil - Ceará","centroid":{"lat":-5.096608849051066,"lon":-39.626427955308756}},{"id":"BR-RN","name":"Brazil - Rio Grande do Norte","centroid":{"lat":-5.834265363907982,"lon":-36.672246829048646}},{"id":"BR-PB","name":"Brazil - Paraíba","centroid":{"lat":-7.119186355111284,"lon":-36.8249495556863}},{"id":"BR-PE","name":"Brazil - Pernambuco","centroid":{"lat":-8.333738769684585,"lon":-37.99301619488093}},{"id":"BR-AL","name":"Brazil - Alagoas","centroid":{"lat":-9.514578890135004,"lon":-36.62554173489414}},{"id":"BR-SE","name":"Brazil - Sergipe","centroid":{"lat":-10.577391518801132,"lon":-37.44262834635262}},{"id":"BR-BA","name":"Brazil - Bahia","centroid":{"lat":-12.468171512461746,"lon":-41.70295160228933}},{"id":"BR-ES","name":"Brazil - Espírito Santo","centroid":{"lat":-19.564458401191395,"lon":-40.66191272121669}},{"id":"BR-RJ","name":"Brazil - Rio de Janeiro","centroid":{"lat":-22.191280737009368,"lon":-42.65763152796156}},{"id":"BR-SP","name":"Brazil - São Paulo","centroid":{"lat":-22.26135478536947,"lon":-48.73695223596527}},{"id":"US-LA","name":"US - Louisiana","centroid":{"lat":31.07213272131186,"lon":-92.00797476437832}},{"id":"US-MS","name":"US - Mississippi","centroid":{"lat":32.74603934687626,"lon":-89.67299572978274}},{"id":"US-AL","name":"US - Alabama","centroid":{"lat":32.77609279289023,"lon":-86.83046001864307}},{"id":"US-FL","name":"US - Florida","centroid":{"lat":28.63401549531286,"lon":-82.44078173436242}},{"id":"US-GA","name":"US - Georgia","centroid":{"lat":32.6427657142995,"lon":-83.4426303555846}},{"id":"US-SC","name":"US - South Carolina","centroid":{"lat":33.91631732058609,"lon":-80.89401065420036}},{"id":"US-NC","name":"US - North Carolina","centroid":{"lat":35.55962000102869,"lon":-79.38918415630086}},{"id":"US-VA","name":"US - Virginia","centroid":{"lat":37.52399300079541,"lon":-78.85090548131203}},{"id":"US-DC","name":"US - District of Columbia","centroid":{"lat":38.90971464865791,"lon":-77.01422115557118}},{"id":"US-MD","name":"US - Maryland","centroid":{"lat":39.05326340684053,"lon":-76.78620155666519}},{"id":"US-DE","name":"US - Delaware","centroid":{"lat":38.995067993599505,"lon":-75.50520580699713}},{"id":"US-NJ","name":"US - New Jersey","centroid":{"lat":40.18818727430001,"lon":-74.6692399480092}},{"id":"US-CT","name":"US - Connecticut","centroid":{"lat":41.62439202687562,"lon":-72.7292015010356}},{"id":"US-RI","name":"US - Rhode Island","centroid":{"lat":41.67629969937403,"lon":-71.55936781424361}},{"id":"US-MA","name":"US - Massachusetts","centroid":{"lat":42.25927066100227,"lon":-71.80142857603343}},{"id":"US-OR","name":"US - Oregon","centroid":{"lat":43.93823157728385,"lon":-120.55371621356556}},{"id":"CA-NU","name":"Canada - Nunavut","centroid":{"lat":69.6526005578213,"lon":-90.42519824764913}},{"id":"CA-NL","name":"Canada - Newfoundland and Labrador","centroid":{"lat":52.73687162745486,"lon":-60.17826648166074}},{"id":"CA-NS","name":"Canada - Nova Scotia","centroid":{"lat":45.15726168384663,"lon":-63.348009083423484}},{"id":"CA-NT","name":"Canada - Northwest Territories","centroid":{"lat":65.73920700492138,"lon":-118.45468915920696}},{"id":"NL-BQ1","name":"Netherlands - Bonaire","centroid":{"lat":12.186478371779746,"lon":-68.2875896339699}},{"id":"FR-MQ","name":"France - Martinique","centroid":{"lat":14.656375153956619,"lon":-61.01754686520177}},{"id":"FR-GP","name":"France - Guadeloupe","centroid":{"lat":16.20826405757205,"lon":-61.52962422250169}},{"id":"NL-BQ3","name":"Netherlands - St. Eustatius","centroid":{"lat":17.489195738218637,"lon":-62.974111963368955}},{"id":"US-PR","name":"US - Puerto Rico","centroid":{"lat":18.22423830820423,"lon":-66.46758976759445}},{"id":"FR-RE","name":"France - La Réunion","centroid":{"lat":-21.119428266552877,"lon":55.541602236533585}},{"id":"FR-YT","name":"France - Mayotte","centroid":{"lat":-12.817376764906818,"lon":45.14216877955705}},{"id":"ES-TF","name":"Spain - Santa Cruz de Tenerife","centroid":{"lat":28.306160611635413,"lon":-17.032364631867704}},{"id":"ES-GC","name":"Spain - Las Palmas","centroid":{"lat":28.3675150167022,"lon":-14.551386959693122}},{"id":"PT-30","name":"Portugal - Madeira","centroid":{"lat":32.755958461870094,"lon":-16.943917265728636}},{"id":"PT-20","name":"Portugal - Azores","centroid":{"lat":38.374008688514685,"lon":-27.310152389044507}},{"id":"US-HI","name":"US - Hawaii","centroid":{"lat":20.252518499446712,"lon":-156.33721705051397}},{"id":"CA-PE","name":"Canada - Prince Edward Island","centroid":{"lat":46.401441811415914,"lon":-63.24618678030378}},{"id":"NL-BQ2","name":"Netherlands - Saba","centroid":{"lat":17.630503327754447,"lon":-63.23801321734392}},{"id":"US-UT","name":"US - Utah","centroid":{"lat":39.308258569561765,"lon":-111.66600652888508}},{"id":"US-WY","name":"US - Wyoming","centroid":{"lat":42.99589269404278,"lon":-107.55226638862977}},{"id":"US-NV","name":"US - Nevada","centroid":{"lat":39.32686982345987,"lon":-116.62784256495723}},{"id":"US-CO","name":"US - Colorado","centroid":{"lat":38.997742114580596,"lon":-105.54669124369266}},{"id":"US-SD","name":"US - South Dakota","centroid":{"lat":44.44771678431989,"lon":-100.23050778523962}},{"id":"US-NE","name":"US - Nebraska","centroid":{"lat":41.53976752586534,"lon":-99.79018661678215}},{"id":"US-KS","name":"US - Kansas","centroid":{"lat":38.49320003637022,"lon":-98.37923789556753}},{"id":"US-OK","name":"US - Oklahoma","centroid":{"lat":35.592921788250315,"lon":-97.49661577836875}},{"id":"US-IA","name":"US - Iowa","centroid":{"lat":42.07827753206994,"lon":-93.49369168277313}},{"id":"US-MO","name":"US - Missouri","centroid":{"lat":38.35909232270609,"lon":-92.46452182219024}},{"id":"BR-GO","name":"Brazil - Goiás","centroid":{"lat":-16.018718249107494,"lon":-49.59181434683378}},{"id":"BR-DF","name":"Brazil - Distrito Federal","centroid":{"lat":-15.771382475670551,"lon":-47.78773934426094}},{"id":"BR-MG","name":"Brazil - Minas Gerais","centroid":{"lat":-18.44084794447494,"lon":-44.663021897258304}},{"id":"BR-TO","name":"Brazil - Tocantins","centroid":{"lat":-10.131513305663875,"lon":-48.326094995527974}},{"id":"US-WI","name":"US - Wisconsin","centroid":{"lat":44.6296102557338,"lon":-89.71228621872329}},{"id":"US-IL","name":"US - Illinois","centroid":{"lat":40.10271796324858,"lon":-89.15576620253621}},{"id":"US-KY","name":"US - Kentucky","centroid":{"lat":37.53802035638728,"lon":-85.30139653063013}},{"id":"US-AR","name":"US - Arkansas","centroid":{"lat":34.89682257388492,"lon":-92.44795417517733}},{"id":"US-TN","name":"US - Tennessee","centroid":{"lat":35.86173993377478,"lon":-86.34912353555865}},{"id":"US-WV","name":"US - West Virginia","centroid":{"lat":38.64513438194869,"lon":-80.62131009310713}},{"id":"US-IN","name":"US - Indiana","centroid":{"lat":39.90370058431155,"lon":-86.2906789807919}}]